[
  {
    "id": 1,
    "name": "Apollo Hospital, Navi Mumbai",
    "address": "Plot 13, 14, 15, Sector 23, CBD Belapur, Navi Mumbai, Maharashtra 400614",
    "city": "Mumbai",
    "contact": "022 3350 3350",
    "location": {
      "type": "Point",
      "coordinates": [73.0487, 19.0197]
    }
  },
  {
    "id": 2,
    "name": "Lilavati Hospital and Research Centre",
    "address": "A-791, Bandra Reclamation, Bandra West, Mumbai, Maharashtra 400050",
    "city": "Mumbai",
    "contact": "022 2675 1000",
    "location": {
      "type": "Point",
      "coordinates": [72.8277, 19.0543]
    }
  },
  {
    "id": 3,
    "name": "Tata Memorial Hospital",
    "address": "Dr E Borges Rd, Parel, Mumbai, Maharashtra 400012",
    "city": "Mumbai",
    "contact": "022 2417 7000",
    "location": {
      "type": "Point",
      "coordinates": [72.8291, 18.9959]
    }
  },
  {
    "id": 4,
    "name": "Kokilaben Dhirubhai Ambani Hospital",
    "address": "Rao Saheb Achutrao Patwardhan Marg, Four Bungalows, Andheri West, Mumbai, Maharashtra 400053",
    "city": "Mumbai",
    "contact": "022 3066 5555",
    "location": {
      "type": "Point",
      "coordinates": [72.8202, 19.1206]
    }
  },
  {
    "id": 5,
    "name": "Breach Candy Hospital",
    "address": "60A, Bhulabhai Desai Marg, Cumballa Hill, Mumbai, Maharashtra 400026",
    "city": "Mumbai",
    "contact": "022 2367 1888",
    "location": {
      "type": "Point",
      "coordinates": [72.8066, 18.9669]
    }
  },
  {
    "id": 6,
    "name": "Jaslok Hospital",
    "address": "15, Dr G Deshmukh Marg, Pedder Road, Mumbai, Maharashtra 400026",
    "city": "Mumbai",
    "contact": "022 6657 3333",
    "location": {
      "type": "Point",
      "coordinates": [72.8055, 18.9774]
    }
  },
  {
    "id": 7,
    "name": "P. D. Hinduja Hospital",
    "address": "Veer Savarkar Marg, Mahim West, Mahim, Mumbai, Maharashtra 400016",
    "city": "Mumbai",
    "contact": "022 2444 7777",
    "location": {
      "type": "Point",
      "coordinates": [72.8398, 19.0305]
    }
  },
  {
    "id": 8,
    "name": "Fortis Hospital, Kalyan",
    "address": "Shashikala Lokhande Marg, Bail Bazar, Kalyan West, Mumbai, Maharashtra 421301",
    "city": "Mumbai",
    "contact": "0251 350 4400",
    "location": {
      "type": "Point",
      "coordinates": [73.1257, 19.2319]
    }
  },
  {
    "id": 9,
    "name": "Wockhardt Hospital, Mumbai Central",
    "address": "1877, Dr. Anandrao Nair Marg, Agripada, Mumbai Central, Mumbai, Maharashtra 400011",
    "city": "Mumbai",
    "contact": "022 6138 2345",
    "location": {
      "type": "Point",
      "coordinates": [72.8219, 18.9754]
    }
  },
  {
    "id": 10,
    "name": "SevenHills Hospital",
    "address": "Marol, Andheri East, Mumbai, Maharashtra 400059",
    "city": "Mumbai",
    "contact": "022 6767 6767",
    "location": {
      "type": "Point",
      "coordinates": [72.8719, 19.1084]
    }
  },
  {
    "id": 11,
    "name": "Global Hospital, Parel",
    "address": "66-A, Parel, Mumbai, Maharashtra 400012",
    "city": "Mumbai",
    "contact": "022 6767 6768",
    "location": {
      "type": "Point",
      "coordinates": [72.8351, 18.9959]
    }
  },
  {
    "id": 12,
    "name": "Hiranandani Hospital, Powai",
    "address": "Hill Side Avenue, Hiranandani Gardens, Powai, Mumbai, Maharashtra 400076",
    "city": "Mumbai",
    "contact": "022 2576 3300",
    "location": {
      "type": "Point",
      "coordinates": [72.9097, 19.1171]
    }
  },
  {
    "id": 13,
    "name": "Nanavati Super Speciality Hospital",
    "address": "S.V. Road, Vile Parle West, Mumbai, Maharashtra 400056",
    "city": "Mumbai",
    "contact": "022 2626 7555",
    "location": {
      "type": "Point",
      "coordinates": [72.8465, 19.0963]
    }
  },
  {
    "id": 14,
    "name": "Asian Heart Institute",
    "address": "G Block BKC, Bandra Kurla Complex, Bandra East, Mumbai, Maharashtra 400051",
    "city": "Mumbai",
    "contact": "022 6606 7890",
    "location": {
      "type": "Point",
      "coordinates": [72.8623, 19.0558]
    }
  },
  {
    "id": 15,
    "name": "S. L. Raheja Hospital, Mahim",
    "address": "Mahim Causeway, Mahim, Mumbai, Maharashtra 400016",
    "city": "Mumbai",
    "contact": "022 6652 9999",
    "location": {
      "type": "Point",
      "coordinates": [72.8436, 19.0305]
    }
  },
  {
    "id": 16,
    "name": "Bombay Hospital",
    "address": "12, New Marine Lines, Mumbai, Maharashtra 400020",
    "city": "Mumbai",
    "contact": "022 2200 4578",
    "location": {
      "type": "Point",
      "coordinates": [72.8251, 18.9489]
    }
  },
  {
    "id": 17,
    "name": "Saifee Hospital",
    "address": "15/17, Maharshi Karve Rd, Charni Road East, Opera House, Mumbai, Maharashtra 400004",
    "city": "Mumbai",
    "contact": "022 6757 0111",
    "location": {
      "type": "Point",
      "coordinates": [72.8195, 18.9610]
    }
  },
  {
    "id": 18,
    "name": "HN Reliance Foundation Hospital",
    "address": "Raja Ram Mohan Roy Rd, Girgaon, Mumbai, Maharashtra 400004",
    "city": "Mumbai",
    "contact": "022 6130 5000",
    "location": {
      "type": "Point",
      "coordinates": [72.8123, 18.9566]
    }
  },
  {
    "id": 19,
    "name": "Fortis Hospital, Vashi",
    "address": "123, Fortis Rd, Sector 15, Vashi, Navi Mumbai, Maharashtra 400703",
    "city": "Mumbai",
    "contact": "022 6799 4444",
    "location": {
      "type": "Point",
      "coordinates": [73.0039, 19.0790]
    }
  },
  {
    "id": 20,
    "name": "KEM Hospital, Mumbai",
    "address": "Acharya Donde Marg, Parel, Mumbai, Maharashtra 400012",
    "city": "Mumbai",
    "contact": "022 2410 7000",
    "location": {
      "type": "Point",
      "coordinates": [72.8427, 18.9959]
    }
  },
  {
    "id": 21,
    "name": "M.G.M. Hospital",
    "address": "Vashi, Navi Mumbai, Maharashtra 400703",
    "city": "Mumbai",
    "contact": "022 6152 6262",
    "location": {
      "type": "Point",
      "coordinates": [73.0039, 19.0664]
    }
  },
  {
    "id": 22,
    "name": "Maxicare Hospital",
    "address": "Dutta Mandir Rd, Four Bungalows, Andheri West, Mumbai, Maharashtra 400053",
    "city": "Mumbai",
    "contact": "022 2634 3455",
    "location": {
      "type": "Point",
      "coordinates": [72.8227, 19.1255]
    }
  },
  {
    "id": 23,
    "name": "Global Hospital, Mumbai",
    "address": "Dr E Borges Rd, Parel, Mumbai, Maharashtra 400012",
    "city": "Mumbai",
    "contact": "022 6767 6768",
    "location": {
      "type": "Point",
      "coordinates": [72.8351, 18.9959]
    }
  },
  {
    "id": 24,
    "name": "Sion Hospital",
    "address": "Sion West, Sion, Mumbai, Maharashtra 400022",
    "city": "Mumbai",
    "contact": "022 2407 6381",
    "location": {
      "type": "Point",
      "coordinates": [72.8596, 19.0435]
    }
  },
  {
    "id": 25,
    "name": "Bandra Kurla Complex Blood Bank",
    "address": "Bandra Kurla Complex, Bandra East, Mumbai, Maharashtra 400051",
    "city": "Mumbai",
    "contact": "022 2659 5555",
    "location": {
      "type": "Point",
      "coordinates": [72.8623, 19.0558]
    }
  },
  {
    "id": 26,
    "name": "Jeevan Jyoti Blood Bank",
    "address": "25, Shanti Niketan, Near GPO, Pune, Maharashtra 411001",
    "city": "Pune",
    "contact": "020 2634 5678",
    "location": {
      "type": "Point",
      "coordinates": [73.8567, 18.5204]
    }
  },
  {
    "id": 27,
    "name": "Deenanath Mangeshkar Hospital",
    "address": "Survey No 27, Erandwane, Pune, Maharashtra 411004",
    "city": "Pune",
    "contact": "020 4015 9000",
    "location": {
      "type": "Point",
      "coordinates": [73.8160, 18.5089]
    }
  },
  {
    "id": 28,
    "name": "Ruby Hall Clinic, Pune",
    "address": "40, Sassoon Rd, Sangamvadi, Pune, Maharashtra 411001",
    "city": "Pune",
    "contact": "020 6645 5999",
    "location": {
      "type": "Point",
      "coordinates": [73.8767, 18.5290]
    }
  },
  {
    "id": 29,
    "name": "Jehangir Hospital",
    "address": "32, Sassoon Rd, Pune, Maharashtra 411001",
    "city": "Pune",
    "contact": "020 6681 1000",
    "location": {
      "type": "Point",
      "coordinates": [73.8789, 18.5262]
    }
  },
  {
    "id": 30,
    "name": "Sahyadri Hospital, Deccan Gymkhana",
    "address": "Plot No. 343, Bhudhar Kargaonkar Path, Pune, Maharashtra 411004",
    "city": "Pune",
    "contact": "020 6721 5000",
    "location": {
      "type": "Point",
      "coordinates": [73.8373, 18.5135]
    }
  },
  {
    "id": 31,
    "name": "Noble Hospital",
    "address": "153, Magarpatta City, Hadapsar, Pune, Maharashtra 411013",
    "city": "Pune",
    "contact": "020 6628 5000",
    "location": {
      "type": "Point",
      "coordinates": [73.9167, 18.5255]
    }
  },
  {
    "id": 32,
    "name": "Inamdar Multispeciality Hospital",
    "address": "S.No. 15, Fatima Nagar, Kondhwa Rd, Pune, Maharashtra 411040",
    "city": "Pune",
    "contact": "020 6689 6789",
    "location": {
      "type": "Point",
      "coordinates": [73.8962, 18.4975]
    }
  },
  {
    "id": 33,
    "name": "KEM Hospital, Pune",
    "address": "489, Rasta Peth, Sardar Moodliar Rd, Pune, Maharashtra 411011",
    "city": "Pune",
    "contact": "020 6603 7300",
    "location": {
      "type": "Point",
      "coordinates": [73.8687, 18.5196]
    }
  },
  {
    "id": 34,
    "name": "Aditya Birla Memorial Hospital",
    "address": "Pimpri-Chinchwad Link Rd, Thergaon, Pune, Maharashtra 411033",
    "city": "Pune",
    "contact": "020 3071 7500",
    "location": {
      "type": "Point",
      "coordinates": [73.7847, 18.6186]
    }
  },
  {
    "id": 35,
    "name": "Sassoon General Hospitals",
    "address": "Jai Prakash Narayan Rd, Pune, Maharashtra 411001",
    "city": "Pune",
    "contact": "020 2612 8000",
    "location": {
      "type": "Point",
      "coordinates": [73.8710, 18.5165]
    }
  },
  {
    "id": 36,
    "name": "Lokmanya Hospital",
    "address": "Chinchwadgaon, Pimpri-Chinchwad, Pune, Maharashtra 411033",
    "city": "Pune",
    "contact": "020 2745 6789",
    "location": {
      "type": "Point",
      "coordinates": [73.7788, 18.6253]
    }
  },
  {
    "id": 37,
    "name": "Karve Hospital",
    "address": "123, Karve Road, Pune, Maharashtra 411004",
    "city": "Pune",
    "contact": "020 2545 1234",
    "location": {
      "type": "Point",
      "coordinates": [73.8188, 18.5089]
    }
  },
  {
    "id": 38,
    "name": "Kolhapur Blood Bank",
    "address": "15, Shivaji Road, Kolhapur, Maharashtra 416002",
    "city": "Pune",
    "contact": "0231 254 3210",
    "location": {
      "type": "Point",
      "coordinates": [74.2433, 16.7050]
    }
  },
  {
    "id": 39,
    "name": "Pune Blood Centre",
    "address": "789, MG Road, Camp, Pune, Maharashtra 411001",
    "city": "Pune",
    "contact": "020 2613 5555",
    "location": {
      "type": "Point",
      "coordinates": [73.8762, 18.5186]
    }
  },
  {
    "id": 40,
    "name": "Yashwantrao Chavan Memorial Hospital",
    "address": "Sant Tukaram Nagar, Pimpri, Pune, Maharashtra 411018",
    "city": "Pune",
    "contact": "020 2742 3456",
    "location": {
      "type": "Point",
      "coordinates": [73.8055, 18.6293]
    }
  },
  {
    "id": 41,
    "name": "Kalyani Nagar Blood Bank",
    "address": "10, Kalyani Nagar, Pune, Maharashtra 411006",
    "city": "Pune",
    "contact": "020 2701 1234",
    "location": {
      "type": "Point",
      "coordinates": [73.9054, 18.5583]
    }
  },
  {
    "id": 42,
    "name": "Jeevan Jyoti Blood Bank",
    "address": "12, Shivaji Nagar, Pune, Maharashtra 411005",
    "city": "Pune",
    "contact": "020 2634 5679",
    "location": {
      "type": "Point",
      "coordinates": [73.8398, 18.5305]
    }
  },
  {
    "id": 43,
    "name": "Shree Hospital",
    "address": "22, Kothrud, Pune, Maharashtra 411038",
    "city": "Pune",
    "contact": "020 2534 1234",
    "location": {
      "type": "Point",
      "coordinates": [73.8050, 18.5080]
    }
  },
  {
    "id": 44,
    "name": "Prathmesh Hospital",
    "address": "45, Baner Rd, Pune, Maharashtra 411045",
    "city": "Pune",
    "contact": "020 2735 6789",
    "location": {
      "type": "Point",
      "coordinates": [73.7669, 18.5635]
    }
  }
]